$HEHDT,80.0,T*
$GPRMC,103957.93,A,1230.000,N,00000.000,W,0.0,80.0,,,,A*
$VWVHW,,T,,M,0.0,N,,K*
$SDDPT,0,0.0*
$HEHDT,80.0,T*
$HEHDT,80.0,T*
$HEHDT,80.0,T*
$HEHDT,80.0,T*
$HEHDT,80.0,T*
$HEHDT,80.0,T*
$HEHDT,80.0,T*
$HEHDT,80.0,T*
$HEHDT,80.0,T*
$HEHDT,80.0,T*
$GPRMC,103958.93,A,1230.000,N,00000.000,W,0.0,80.0,,,,A*
$VWVHW,,T,,M,0.0,N,,K*
$SDDPT,0,0.0*
$HEHDT,80.0,T*
$HEHDT,80.0,T*
$HEHDT,80.0,T*
$HEHDT,80.0,T*
$HEHDT,80.0,T*
$HEHDT,80.0,T*
$HEHDT,80.0,T*
$HEHDT,80.0,T*
$HEHDT,80.0,T*
$GPRMC,103959.93,A,1230.000,N,00000.000,W,0.0,80.0,,,,A*
$VWVHW,,T,,M,0.0,N,,K*
$SDDPT,0,0.0*
$HEHDT,80.0,T*
$HEHDT,80.0,T*
$HEHDT,80.0,T*
$HEHDT,80.0,T*
$HEHDT,80.0,T*
$HEHDT,80.0,T*
$HEHDT,80.0,T*
$HEHDT,80.0,T*
$HEHDT,80.0,T*
$GPRMC,104000.93,A,1230.001,N,08135.993,W,24.0,80.0,,,,A*
$VWVHW,,T,,M,24.0,N,,K*
$SDDPT,80,0.0*
$HEHDT,80.0,T*
$HEHDT,80.0,T*
$HEHDT,80.0,T*
$HEHDT,80.0,T*
$HEHDT,80.0,T*
$HEHDT,80.0,T*
$HEHDT,80.0,T*
$HEHDT,80.0,T*
$HEHDT,80.0,T*
$GPRMC,104001.93,A,1230.002,N,08135.987,W,24.0,80.0,,,,A*
$VWVHW,,T,,M,24.0,N,,K*
$SDDPT,80,0.0*
$HEHDT,80.0,T*
$HEHDT,80.0,T*
$HEHDT,80.0,T*
$HEHDT,80.0,T*
$HEHDT,80.0,T*
$HEHDT,80.0,T*
$HEHDT,80.0,T*
$HEHDT,80.0,T*
$HEHDT,80.0,T*
$GPRMC,104002.94,A,1230.003,N,08135.980,W,24.0,80.0,,,,A*
$VWVHW,,T,,M,24.0,N,,K*
$SDDPT,80,0.0*
$HEHDT,80.0,T*
$HEHDT,80.0,T*
$HEHDT,80.0,T*
$HEHDT,80.0,T*
$HEHDT,80.0,T*
$HEHDT,80.0,T*
$HEHDT,80.0,T*
$HEHDT,80.0,T*
$HEHDT,80.0,T*
$GPRMC,104003.94,A,1230.005,N,08135.973,W,24.0,80.0,,,,A*
$VWVHW,,T,,M,24.0,N,,K*
$SDDPT,80,0.0*
$HEHDT,80.0,T*
$HEHDT,80.0,T*
$HEHDT,80.0,T*
$HEHDT,80.0,T*
$HEHDT,80.0,T*
$HEHDT,80.0,T*
$HEHDT,80.0,T*
$HEHDT,80.0,T*
$HEHDT,80.0,T*
$GPRMC,104004.94,A,1230.006,N,08135.966,W,24.0,80.0,,,,A*
$VWVHW,,T,,M,24.0,N,,K*
$SDDPT,93.5,0.0*
$HEHDT,80.0,T*
$HEHDT,80.0,T*
$HEHDT,80.0,T*
$HEHDT,80.0,T*
$HEHDT,81.0,T*
$HEHDT,81.0,T*
$HEHDT,81.0,T*
$HEHDT,81.0,T*
$HEHDT,81.0,T*
$HEHDT,81.0,T*
$GPRMC,104005.94,A,1230.007,N,08135.960,W,24.0,81.0,,,,A*
$VWVHW,,T,,M,24.0,N,,K*
$SDDPT,94.6,0.0*
$HEHDT,81.0,T*
$HEHDT,81.0,T*
$HEHDT,81.0,T*
$HEHDT,81.0,T*
$HEHDT,81.0,T*
$HEHDT,81.0,T*
$HEHDT,81.0,T*
$HEHDT,81.0,T*
$HEHDT,81.0,T*
$GPRMC,104006.94,A,1230.008,N,08135.953,W,24.0,81.0,,,,A*
$VWVHW,,T,,M,24.0,N,,K*
$SDDPT,94.6,0.0*
$HEHDT,81.0,T*
$HEHDT,81.0,T*
$HEHDT,81.0,T*
$HEHDT,81.0,T*
$HEHDT,81.0,T*
$HEHDT,81.0,T*
$HEHDT,81.0,T*
$HEHDT,81.0,T*
$HEHDT,81.0,T*
$GPRMC,104007.94,A,1230.009,N,08135.946,W,24.0,81.0,,,,A*
$VWVHW,,T,,M,24.0,N,,K*
$SDDPT,94.6,0.0*
$HEHDT,81.0,T*
$HEHDT,81.0,T*
$HEHDT,81.0,T*
$HEHDT,81.0,T*
$HEHDT,81.0,T*
$HEHDT,81.0,T*
$HEHDT,81.0,T*
$HEHDT,81.0,T*
$HEHDT,81.0,T*
$GPRMC,104008.94,A,1230.010,N,08135.939,W,24.0,81.0,,,,A*
$VWVHW,,T,,M,24.0,N,,K*
$SDDPT,94.6,0.0*
$HEHDT,81.0,T*
$HEHDT,81.0,T*
$HEHDT,81.0,T*
$HEHDT,81.0,T*
$HEHDT,81.0,T*
$HEHDT,81.0,T*
$HEHDT,81.0,T*
$HEHDT,81.0,T*
$HEHDT,81.0,T*
$GPRMC,104009.94,A,1230.011,N,08135.933,W,24.0,81.0,,,,A*
$VWVHW,,T,,M,24.0,N,,K*
$SDDPT,95.7,0.0*
$HEHDT,81.0,T*
$HEHDT,81.0,T*
$HEHDT,81.0,T*
$HEHDT,82.0,T*
$HEHDT,82.0,T*
$HEHDT,82.0,T*
$HEHDT,82.0,T*
$HEHDT,82.0,T*
$HEHDT,82.0,T*
$GPRMC,104010.94,A,1230.012,N,08135.926,W,24.0,82.0,,,,A*
$VWVHW,,T,,M,24.0,N,,K*
$SDDPT,96.9,0.0*
$HEHDT,82.0,T*
$HEHDT,82.0,T*
$HEHDT,82.0,T*
$HEHDT,82.0,T*
$HEHDT,82.0,T*
$HEHDT,82.0,T*
$HEHDT,82.0,T*
$HEHDT,82.0,T*
$HEHDT,82.0,T*
$GPRMC,104011.94,A,1230.013,N,08135.919,W,24.0,82.0,,,,A*
$VWVHW,,T,,M,24.0,N,,K*
$SDDPT,96.9,0.0*
$HEHDT,82.0,T*
$HEHDT,82.0,T*
$HEHDT,82.0,T*
$HEHDT,82.0,T*
$HEHDT,82.0,T*
$HEHDT,82.0,T*
$HEHDT,82.0,T*
$HEHDT,82.0,T*
$HEHDT,82.0,T*
$HEHDT,82.0,T*
$GPRMC,104012.94,A,1230.014,N,08135.912,W,24.0,82.3,,,,A*
$VWVHW,,T,,M,24.0,N,,K*
$SDDPT,96.9,0.0*
$HEHDT,82.0,T*
$HEHDT,82.0,T*
$HEHDT,82.0,T*
$HEHDT,82.0,T*
$HEHDT,82.0,T*
$HEHDT,82.0,T*
$HEHDT,83.0,T*
$HEHDT,83.0,T*
$HEHDT,83.0,T*
$GPRMC,104013.94,A,1230.015,N,08135.906,W,24.0,83.3,,,,A*
$VWVHW,,T,,M,24.0,N,,K*
$SDDPT,98.1,0.0*
$HEHDT,83.0,T*
$HEHDT,83.0,T*
$HEHDT,83.0,T*
$HEHDT,83.0,T*
$HEHDT,83.0,T*
$HEHDT,83.0,T*
$HEHDT,83.0,T*
$HEHDT,83.0,T*
$HEHDT,83.0,T*
$GPRMC,104014.95,A,1230.015,N,08135.899,W,24.0,83.3,,,,A*
$VWVHW,,T,,M,24.0,N,,K*
$SDDPT,85.3,0.0*
$HEHDT,83.0,T*
$HEHDT,83.0,T*
$HEHDT,83.0,T*
$HEHDT,83.0,T*
$HEHDT,83.0,T*
$HEHDT,83.0,T*
$HEHDT,83.0,T*
$HEHDT,83.0,T*
$HEHDT,83.0,T*
$GPRMC,104015.95,A,1230.016,N,08135.892,W,24.0,83.3,,,,A*
$VWVHW,,T,,M,24.0,N,,K*
$SDDPT,85.3,0.0*
$HEHDT,83.0,T*
$HEHDT,83.0,T*
$HEHDT,83.0,T*
$HEHDT,83.0,T*
$HEHDT,83.0,T*
$HEHDT,83.0,T*
$HEHDT,83.0,T*
$HEHDT,83.0,T*
$HEHDT,83.0,T*
$GPRMC,104016.94,A,1230.017,N,08135.885,W,24.0,83.3,,,,A*
$VWVHW,,T,,M,24.0,N,,K*
$SDDPT,85.3,0.0*
$HEHDT,83.0,T*
$HEHDT,83.0,T*
$HEHDT,83.0,T*
$HEHDT,83.0,T*
$HEHDT,83.0,T*
$HEHDT,84.0,T*
$HEHDT,84.0,T*
$HEHDT,84.0,T*
$HEHDT,84.0,T*
$GPRMC,104017.95,A,1230.018,N,08135.878,W,24.0,84.3,,,,A*
$VWVHW,,T,,M,24.0,N,,K*
$SDDPT,86.4,0.0*
$HEHDT,84.0,T*
$HEHDT,84.0,T*
$HEHDT,84.0,T*
$HEHDT,84.0,T*
$HEHDT,84.0,T*
$HEHDT,84.0,T*
$HEHDT,84.0,T*
$HEHDT,84.0,T*
$HEHDT,84.0,T*
$GPRMC,104018.95,A,1230.018,N,08135.872,W,24.0,84.3,,,,A*
$VWVHW,,T,,M,24.0,N,,K*
$SDDPT,86.4,0.0*
$HEHDT,84.0,T*
$HEHDT,84.0,T*
$HEHDT,84.0,T*
$HEHDT,84.0,T*
$HEHDT,84.0,T*
$HEHDT,84.0,T*
$HEHDT,84.0,T*
$HEHDT,84.0,T*
$HEHDT,84.0,T*
$HEHDT,84.0,T*
$GPRMC,104019.95,A,1230.019,N,08135.865,W,24.0,84.3,,,,A*
$VWVHW,,T,,M,24.0,N,,K*
$SDDPT,71.3,0.0*
$HEHDT,84.0,T*
$HEHDT,84.0,T*
$HEHDT,84.0,T*
$HEHDT,84.0,T*
$HEHDT,84.0,T*
$HEHDT,84.0,T*
$HEHDT,84.0,T*
$HEHDT,84.0,T*
$HEHDT,84.0,T*
$GPRMC,104020.95,A,1230.020,N,08135.858,W,24.0,84.3,,,,A*
$VWVHW,,T,,M,24.0,N,,K*
$SDDPT,71.3,0.0*
$HEHDT,84.0,T*
$HEHDT,84.0,T*
$HEHDT,84.0,T*
$HEHDT,84.0,T*
$HEHDT,84.0,T*
$HEHDT,84.0,T*
$HEHDT,84.0,T*
$HEHDT,84.0,T*
$HEHDT,84.0,T*
$GPRMC,104021.95,A,1230.020,N,08135.851,W,24.0,84.3,,,,A*
$VWVHW,,T,,M,24.0,N,,K*
$SDDPT,71.3,0.0*
$HEHDT,84.0,T*
$HEHDT,84.0,T*
$HEHDT,84.0,T*
$HEHDT,84.0,T*
$HEHDT,84.0,T*
$HEHDT,84.0,T*
$HEHDT,84.0,T*
$HEHDT,84.0,T*
$HEHDT,84.0,T*
$GPRMC,104022.95,A,1230.021,N,08135.844,W,24.0,84.3,,,,A*
$VWVHW,,T,,M,24.0,N,,K*
$SDDPT,71.3,0.0*
$HEHDT,84.0,T*
$HEHDT,84.0,T*
$HEHDT,84.0,T*
$HEHDT,84.0,T*
$HEHDT,84.0,T*
$HEHDT,84.0,T*
$HEHDT,84.0,T*
$HEHDT,84.0,T*
$HEHDT,84.0,T*
$GPRMC,104023.95,A,1230.021,N,08135.838,W,24.0,84.3,,,,A*
$VWVHW,,T,,M,24.0,N,,K*
$SDDPT,71.3,0.0*
$HEHDT,84.0,T*
$HEHDT,84.0,T*
$HEHDT,84.0,T*
$HEHDT,84.0,T*
$HEHDT,84.0,T*
$HEHDT,84.0,T*
$HEHDT,84.0,T*
$HEHDT,84.0,T*
$HEHDT,84.0,T*
$GPRMC,104024.96,A,1230.022,N,08135.831,W,24.0,84.3,,,,A*
$VWVHW,,T,,M,24.0,N,,K*
$SDDPT,67.9,0.0*
$HEHDT,84.0,T*
$HEHDT,84.0,T*
$HEHDT,84.0,T*
$HEHDT,84.0,T*
$HEHDT,84.0,T*
$HEHDT,84.0,T*
$HEHDT,84.0,T*
$HEHDT,84.0,T*
$HEHDT,84.0,T*
$GPRMC,104025.96,A,1230.023,N,08135.824,W,24.0,84.3,,,,A*
$VWVHW,,T,,M,24.0,N,,K*
$SDDPT,67.9,0.0*
$HEHDT,84.0,T*
$HEHDT,84.0,T*
$HEHDT,84.0,T*
$HEHDT,84.0,T*
$HEHDT,84.0,T*
$HEHDT,84.0,T*
$HEHDT,84.0,T*
$HEHDT,84.0,T*
$HEHDT,84.0,T*
$HEHDT,84.0,T*
$GPRMC,104026.95,A,1230.023,N,08135.817,W,24.0,84.3,,,,A*
$VWVHW,,T,,M,25.0,N,,K*
$SDDPT,67.9,0.0*
$HEHDT,84.0,T*
$HEHDT,84.0,T*
$HEHDT,84.0,T*
$HEHDT,84.0,T*
$HEHDT,84.0,T*
$HEHDT,84.0,T*
$HEHDT,84.0,T*
$HEHDT,84.0,T*
$HEHDT,84.0,T*
$GPRMC,104027.95,A,1230.024,N,08135.810,W,24.0,84.3,,,,A*
$VWVHW,,T,,M,25.0,N,,K*
$SDDPT,67.9,0.0*
$HEHDT,84.0,T*
$HEHDT,84.0,T*
$HEHDT,84.0,T*
$HEHDT,84.0,T*
$HEHDT,84.0,T*
$HEHDT,84.0,T*
$HEHDT,84.0,T*
$HEHDT,84.0,T*
$HEHDT,84.0,T*
$GPRMC,104028.96,A,1230.025,N,08135.804,W,24.0,84.3,,,,A*
$VWVHW,,T,,M,25.0,N,,K*
$SDDPT,67.9,0.0*
$HEHDT,84.0,T*
$HEHDT,84.0,T*
$HEHDT,85.0,T*
$HEHDT,85.0,T*
$HEHDT,85.0,T*
$HEHDT,85.0,T*
$HEHDT,85.0,T*
$HEHDT,85.0,T*
$HEHDT,85.0,T*
$GPRMC,104029.96,A,1230.025,N,08135.797,W,24.0,85.3,,,,A*
$VWVHW,,T,,M,25.0,N,,K*
$SDDPT,80.2,0.0*
$HEHDT,85.0,T*
$HEHDT,85.0,T*
$HEHDT,85.0,T*
$HEHDT,85.0,T*
$HEHDT,85.0,T*
$HEHDT,85.0,T*
$HEHDT,85.0,T*
$HEHDT,85.0,T*
$HEHDT,85.0,T*
$GPRMC,104030.96,A,1230.026,N,08135.790,W,24.0,85.3,,,,A*
$VWVHW,,T,,M,25.0,N,,K*
$SDDPT,80.2,0.0*
$HEHDT,85.0,T*
$HEHDT,85.0,T*
$HEHDT,85.0,T*
$HEHDT,85.0,T*
$HEHDT,85.0,T*
$HEHDT,85.0,T*
$HEHDT,85.0,T*
$HEHDT,85.0,T*
$HEHDT,85.0,T*
$GPRMC,104031.96,A,1230.026,N,08135.783,W,24.0,85.3,,,,A*
$VWVHW,,T,,M,26.0,N,,K*
$SDDPT,80.2,0.0*
$HEHDT,85.0,T*
$HEHDT,85.0,T*
$HEHDT,85.0,T*
$HEHDT,85.0,T*
$HEHDT,85.0,T*
$HEHDT,85.0,T*
$HEHDT,85.0,T*
$HEHDT,85.0,T*
$HEHDT,86.0,T*
$GPRMC,104032.96,A,1230.027,N,08135.776,W,24.0,86.3,,,,A*
$VWVHW,,T,,M,26.0,N,,K*
$SDDPT,81.2,0.0*
$HEHDT,86.0,T*
$HEHDT,86.0,T*
$HEHDT,86.0,T*
$HEHDT,86.0,T*
$HEHDT,86.0,T*
$HEHDT,86.0,T*
$HEHDT,87.0,T*
$HEHDT,87.0,T*
$HEHDT,87.0,T*
$HEHDT,87.0,T*
$GPRMC,104033.96,A,1230.027,N,08135.770,W,24.0,87.3,,,,A*
$VWVHW,,T,,M,26.0,N,,K*
$SDDPT,82.1,0.0*
$HEHDT,87.0,T*
$HEHDT,87.0,T*
$HEHDT,88.0,T*
$HEHDT,88.0,T*
$HEHDT,88.0,T*
$HEHDT,88.0,T*
$HEHDT,88.0,T*
$HEHDT,89.0,T*
$HEHDT,89.0,T*
$GPRMC,104034.96,A,1230.027,N,08135.763,W,24.0,89.3,,,,A*
$VWVHW,,T,,M,26.0,N,,K*
$SDDPT,100.7,0.0*
$HEHDT,89.0,T*
$HEHDT,89.0,T*
$HEHDT,89.0,T*
$HEHDT,90.0,T*
$HEHDT,90.0,T*
$HEHDT,90.0,T*
$HEHDT,90.0,T*
$HEHDT,90.0,T*
$HEHDT,90.0,T*
$GPRMC,104035.96,A,1230.027,N,08135.756,W,24.0,91.3,,,,A*
$VWVHW,,T,,M,26.0,N,,K*
$SDDPT,103.0,0.0*
$HEHDT,91.0,T*
$HEHDT,91.0,T*
$HEHDT,91.0,T*
$HEHDT,91.0,T*
$HEHDT,92.0,T*
$HEHDT,92.0,T*
$HEHDT,92.0,T*
$HEHDT,92.0,T*
$HEHDT,92.0,T*
$GPRMC,104036.96,A,1230.027,N,08135.749,W,24.0,92.3,,,,A*
$VWVHW,,T,,M,26.0,N,,K*
$SDDPT,104.1,0.0*
$HEHDT,92.0,T*
$HEHDT,92.0,T*
$HEHDT,93.0,T*
$HEHDT,93.0,T*
$HEHDT,93.0,T*
$HEHDT,93.0,T*
$HEHDT,93.0,T*
$HEHDT,93.0,T*
$HEHDT,93.0,T*
$GPRMC,104037.96,A,1230.026,N,08135.742,W,24.0,94.3,,,,A*
$VWVHW,,T,,M,26.0,N,,K*
$SDDPT,106.4,0.0*
$HEHDT,94.0,T*
$HEHDT,94.0,T*
$HEHDT,94.0,T*
$HEHDT,94.0,T*
$HEHDT,95.0,T*
$HEHDT,95.0,T*
$HEHDT,96.0,T*
$HEHDT,96.0,T*
$HEHDT,96.0,T*
$GPRMC,104038.97,A,1230.026,N,08135.736,W,24.0,97.3,,,,A*
$VWVHW,,T,,M,26.0,N,,K*
$SDDPT,109.7,0.0*
$HEHDT,97.0,T*
$HEHDT,97.0,T*
$HEHDT,98.0,T*
$HEHDT,98.0,T*
$HEHDT,98.0,T*
$HEHDT,99.0,T*
$HEHDT,99.0,T*
$HEHDT,100.0,T*
$HEHDT,100.0,T*
$GPRMC,104039.97,A,1230.024,N,08135.729,W,24.0,100.3,,,,A*
$VWVHW,,T,,M,26.0,N,,K*
$SDDPT,119.8,0.0*
$HEHDT,100.0,T*
$HEHDT,100.0,T*
$HEHDT,100.0,T*
$HEHDT,100.0,T*
$HEHDT,101.0,T*
$HEHDT,101.0,T*
$HEHDT,101.0,T*
$HEHDT,101.0,T*
$HEHDT,102.0,T*
$HEHDT,102.0,T*
$GPRMC,104040.96,A,1230.023,N,08135.722,W,24.0,102.3,,,,A*
$VWVHW,,T,,M,26.0,N,,K*
$SDDPT,122.2,0.0*
$HEHDT,103.0,T*
$HEHDT,103.0,T*
$HEHDT,103.0,T*
$HEHDT,103.0,T*
$HEHDT,104.0,T*
$HEHDT,104.0,T*
$HEHDT,104.0,T*
$HEHDT,105.0,T*
$HEHDT,105.0,T*
$GPRMC,104041.97,A,1230.021,N,08135.716,W,24.0,105.3,,,,A*
$VWVHW,,T,,M,26.0,N,,K*
$SDDPT,125.8,0.0*
$HEHDT,106.0,T*
$HEHDT,106.0,T*
$HEHDT,106.0,T*
$HEHDT,106.0,T*
$HEHDT,106.0,T*
$HEHDT,106.0,T*
$HEHDT,106.0,T*
$HEHDT,106.0,T*
$HEHDT,106.0,T*
$GPRMC,104042.97,A,1230.019,N,08135.709,W,25.0,106.3,,,,A*
$VWVHW,,T,,M,25.0,N,,K*
$SDDPT,127.0,0.0*
$HEHDT,106.0,T*
$HEHDT,106.0,T*
$HEHDT,106.0,T*
$HEHDT,106.0,T*
$HEHDT,106.0,T*
$HEHDT,106.0,T*
$HEHDT,106.0,T*
$HEHDT,106.0,T*
$HEHDT,106.0,T*
$GPRMC,104043.97,A,1230.017,N,08135.701,W,27.0,106.3,,,,A*
$VWVHW,,T,,M,27.0,N,,K*
$SDDPT,127.0,0.0*
$HEHDT,106.0,T*
$HEHDT,106.0,T*
$HEHDT,106.0,T*
$HEHDT,106.0,T*
$HEHDT,107.0,T*
$HEHDT,107.0,T*
$HEHDT,107.0,T*
$HEHDT,107.0,T*
$HEHDT,108.0,T*
$GPRMC,104044.97,A,1230.015,N,08135.694,W,27.0,108.3,,,,A*
$VWVHW,,T,,M,27.0,N,,K*
$SDDPT,116.9,0.0*
$HEHDT,108.0,T*
$HEHDT,109.0,T*
$HEHDT,109.0,T*
$HEHDT,109.0,T*
$HEHDT,110.0,T*
$HEHDT,110.0,T*
$HEHDT,110.0,T*
$HEHDT,111.0,T*
$HEHDT,111.0,T*
$GPRMC,104045.97,A,1230.012,N,08135.687,W,27.0,111.3,,,,A*
$VWVHW,,T,,M,27.0,N,,K*
$SDDPT,120.1,0.0*
$HEHDT,111.0,T*
$HEHDT,112.0,T*
$HEHDT,112.0,T*
$HEHDT,113.0,T*
$HEHDT,113.0,T*
$HEHDT,114.0,T*
$HEHDT,114.0,T*
$HEHDT,114.0,T*
$HEHDT,115.0,T*
$GPRMC,104046.97,A,1230.009,N,08135.680,W,27.0,115.3,,,,A*
$VWVHW,,T,,M,27.0,N,,K*
$SDDPT,124.5,0.0*
$HEHDT,115.0,T*
$HEHDT,116.0,T*
$HEHDT,117.0,T*
$HEHDT,117.0,T*
$HEHDT,117.0,T*
$HEHDT,117.0,T*
$HEHDT,118.0,T*
$HEHDT,118.0,T*
$HEHDT,119.0,T*
$HEHDT,119.0,T*
$GPRMC,104047.97,A,1230.005,N,08135.673,W,27.0,119.3,,,,A*
$VWVHW,,T,,M,27.0,N,,K*
$SDDPT,128.8,0.0*
$HEHDT,119.0,T*
$HEHDT,120.0,T*
$HEHDT,121.0,T*
$HEHDT,121.0,T*
$HEHDT,122.0,T*
$HEHDT,122.0,T*
$HEHDT,122.0,T*
$HEHDT,122.0,T*
$HEHDT,123.0,T*
$GPRMC,104048.99,A,1230.001,N,08135.667,W,27.0,123.3,,,,A*
$VWVHW,,T,,M,27.0,N,,K*
$SDDPT,133.1,0.0*
$HEHDT,123.0,T*
$HEHDT,124.0,T*
$HEHDT,124.0,T*
$HEHDT,124.0,T*
$HEHDT,125.0,T*
$HEHDT,125.0,T*
$HEHDT,126.0,T*
$HEHDT,126.0,T*
$HEHDT,127.0,T*
$GPRMC,104049.98,A,1229.996,N,08135.661,W,27.0,127.3,,,,A*
$VWVHW,,T,,M,27.0,N,,K*
$SDDPT,113.2,0.0*
$HEHDT,127.0,T*
$HEHDT,127.0,T*
$HEHDT,127.0,T*
$HEHDT,127.0,T*
$HEHDT,127.0,T*
$HEHDT,127.0,T*
$HEHDT,128.0,T*
$HEHDT,128.0,T*
$HEHDT,128.0,T*
$GPRMC,104050.97,A,1229.992,N,08135.655,W,27.0,128.3,,,,A*
$VWVHW,,T,,M,27.0,N,,K*
$SDDPT,114.1,0.0*
$HEHDT,128.0,T*
$HEHDT,128.0,T*
$HEHDT,129.0,T*
$HEHDT,129.0,T*
$HEHDT,129.0,T*
$HEHDT,129.0,T*
$HEHDT,129.0,T*
$HEHDT,129.0,T*
$HEHDT,129.0,T*
$GPRMC,104051.97,A,1229.987,N,08135.649,W,27.0,129.3,,,,A*
$VWVHW,,T,,M,27.0,N,,K*
$SDDPT,115.0,0.0*
$HEHDT,129.0,T*
$HEHDT,129.0,T*
$HEHDT,129.0,T*
$HEHDT,129.0,T*
$HEHDT,129.0,T*
$HEHDT,129.0,T*
$HEHDT,129.0,T*
$HEHDT,129.0,T*
$HEHDT,129.0,T*
$GPRMC,104052.98,A,1229.982,N,08135.643,W,27.0,129.3,,,,A*
$VWVHW,,T,,M,27.0,N,,K*
$SDDPT,115.0,0.0*
$HEHDT,129.0,T*
